{
    "success": true,
    "result": {
      "shops": [
        {
          "dist": 1280,
          "shop_id": 5083,
          "name": "ул. Серафимовича, 2",
          "latitude": "55.744556",
          "longitude": "37.6131252",
          "is_plus": false,
          "is_beer": false,
          "city_id": 664,
          "no_alcohol": false,
          "phone": "79250929086",
          "alc_time_start_weekdays": "08:00",
          "alc_time_end_weekdays": "22:30",
          "alc_time_start_weekend": "08:00",
          "alc_time_end_weekend": "22:30",
          "alc_time_start_sunday": null,
          "alc_time_end_sunday": null,
          "zru": 4189,
          "discount_card": 2020536423393,
          "gmt": "3",
          "schedule": "09:00-22:05",
          "stations": [
            {
              "station_id": 140,
              "name": "Кропоткинская",
              "latitude": "55.74506778",
              "longitude": "37.6034865",
              "city_id": 664,
              "pivot": {
                "shop_id": 5083,
                "station_id": 140
              }
            },
            {
              "station_id": 141,
              "name": "Боровицкая",
              "latitude": "55.75045378",
              "longitude": "37.609254",
              "city_id": 664,
              "pivot": {
                "shop_id": 5083,
                "station_id": 141
              }
            },
            {
              "station_id": 281,
              "name": "Полянка",
              "latitude": "55.736836",
              "longitude": "37.618587",
              "city_id": 664,
              "pivot": {
                "shop_id": 5083,
                "station_id": 281
              }
            }
          ]
        },
        {
          "dist": 1380,
          "shop_id": 5154,
          "name": "пер. Печатников, 3",
          "latitude": "55.76746",
          "longitude": "37.6249689",
          "is_plus": false,
          "is_beer": false,
          "city_id": 664,
          "no_alcohol": false,
          "phone": "79250928975",
          "alc_time_start_weekdays": "08:00",
          "alc_time_end_weekdays": "22:30",
          "alc_time_start_weekend": "08:00",
          "alc_time_end_weekend": "22:30",
          "alc_time_start_sunday": null,
          "alc_time_end_sunday": null,
          "zru": 2106,
          "discount_card": 2020536424543,
          "gmt": "3",
          "schedule": "08:00-22:05",
          "stations": [
            {
              "station_id": 122,
              "name": "Цветной бульвар",
              "latitude": "55.77161578",
              "longitude": "37.620986",
              "city_id": 664,
              "pivot": {
                "shop_id": 5154,
                "station_id": 122
              }
            },
            {
              "station_id": 155,
              "name": "Трубная",
              "latitude": "55.76793928",
              "longitude": "37.6218845",
              "city_id": 664,
              "pivot": {
                "shop_id": 5154,
                "station_id": 155
              }
            },
            {
              "station_id": 282,
              "name": "Сретенский бульвар",
              "latitude": "55.766369",
              "longitude": "37.636162",
              "city_id": 664,
              "pivot": {
                "shop_id": 5154,
                "station_id": 282
              }
            }
          ]
        },
        {
          "dist": 2012,
          "shop_id": 9152,
          "name": "ул. Садовническая, 51, стр.1",
          "latitude": "55.74275",
          "longitude": "37.6395324",
          "is_plus": false,
          "is_beer": false,
          "city_id": 664,
          "no_alcohol": false,
          "phone": "79257278259",
          "alc_time_start_weekdays": "08:00",
          "alc_time_end_weekdays": "22:30",
          "alc_time_start_weekend": "08:00",
          "alc_time_end_weekend": "22:30",
          "alc_time_start_sunday": null,
          "alc_time_end_sunday": null,
          "zru": 4159,
          "discount_card": 2020536453048,
          "gmt": "3",
          "schedule": "09:00-22:05",
          "stations": [
            {
              "station_id": 28,
              "name": "Третьяковская",
              "latitude": "55.74132328",
              "longitude": "37.6264295",
              "city_id": 664,
              "pivot": {
                "shop_id": 9152,
                "station_id": 28
              }
            },
            {
              "station_id": 233,
              "name": "Новокузнецкая",
              "latitude": "55.74185028",
              "longitude": "37.6292955",
              "city_id": 664,
              "pivot": {
                "shop_id": 9152,
                "station_id": 233
              }
            }
          ]
        },
        {
          "dist": 2104,
          "shop_id": 12207,
          "name": "пер. Подсосенский, 3",
          "latitude": "55.758801",
          "longitude": "37.650504",
          "is_plus": false,
          "is_beer": false,
          "city_id": 664,
          "no_alcohol": false,
          "phone": "79262053861",
          "alc_time_start_weekdays": "08:00",
          "alc_time_end_weekdays": "22:30",
          "alc_time_start_weekend": "08:00",
          "alc_time_end_weekend": "22:30",
          "alc_time_start_sunday": null,
          "alc_time_end_sunday": null,
          "zru": 4189,
          "discount_card": 2020536456711,
          "gmt": "3",
          "schedule": "09:00-22:05",
          "stations": [
            {
              "station_id": 139,
              "name": "Курская",
              "latitude": "55.75858978",
              "longitude": "37.6600445",
              "city_id": 664,
              "pivot": {
                "shop_id": 12207,
                "station_id": 139
              }
            },
            {
              "station_id": 146,
              "name": "Чкаловская МСК",
              "latitude": "55.75593028",
              "longitude": "37.6592635",
              "city_id": 664,
              "pivot": {
                "shop_id": 12207,
                "station_id": 146
              }
            }
          ]
        },
        {
          "dist": 2147,
          "shop_id": 4545,
          "name": "пл. М. Сухаревская, 1",
          "latitude": "55.774079",
          "longitude": "37.6284986",
          "is_plus": false,
          "is_beer": false,
          "city_id": 664,
          "no_alcohol": false,
          "phone": "79250929216",
          "alc_time_start_weekdays": "08:00",
          "alc_time_end_weekdays": "22:30",
          "alc_time_start_weekend": "08:00",
          "alc_time_end_weekend": "22:30",
          "alc_time_start_sunday": null,
          "alc_time_end_sunday": null,
          "zru": 2106,
          "discount_card": 2020536420019,
          "gmt": "3",
          "schedule": "08:00-22:05",
          "stations": [
            {
              "station_id": 121,
              "name": "Сухаревская",
              "latitude": "55.77231478",
              "longitude": "37.6323225",
              "city_id": 664,
              "pivot": {
                "shop_id": 4545,
                "station_id": 121
              }
            },
            {
              "station_id": 122,
              "name": "Цветной бульвар",
              "latitude": "55.77161578",
              "longitude": "37.620986",
              "city_id": 664,
              "pivot": {
                "shop_id": 4545,
                "station_id": 122
              }
            },
            {
              "station_id": 123,
              "name": "Проспект Мира",
              "latitude": "55.77963078",
              "longitude": "37.6334635",
              "city_id": 664,
              "pivot": {
                "shop_id": 4545,
                "station_id": 123
              }
            }
          ]
        },
        {
          "dist": 2166,
          "shop_id": 13016,
          "name": "б-р Новинский, 13",
          "latitude": "55.753828",
          "longitude": "37.582861",
          "is_plus": false,
          "is_beer": false,
          "city_id": 664,
          "no_alcohol": false,
          "phone": "79253021753",
          "alc_time_start_weekdays": "08:00",
          "alc_time_end_weekdays": "22:30",
          "alc_time_start_weekend": "08:00",
          "alc_time_end_weekend": "22:30",
          "alc_time_start_sunday": null,
          "alc_time_end_sunday": null,
          "zru": 4807,
          "discount_card": 2020536777076,
          "gmt": "3",
          "schedule": "09:00-22:05",
          "stations": [
            {
              "station_id": 245,
              "name": "Смоленская",
              "latitude": "55.74875628",
              "longitude": "37.5821605",
              "city_id": 664,
              "pivot": {
                "shop_id": 13016,
                "station_id": 245
              }
            },
            {
              "station_id": 303,
              "name": "Баррикадная",
              "latitude": "55.760057",
              "longitude": "37.581871",
              "city_id": 664,
              "pivot": {
                "shop_id": 13016,
                "station_id": 303
              }
            }
          ]
        },
        {
          "dist": 2235,
          "shop_id": 5921,
          "name": "пер. Лялин, 22",
          "latitude": "55.757645",
          "longitude": "37.6528726",
          "is_plus": false,
          "is_beer": false,
          "city_id": 664,
          "no_alcohol": false,
          "phone": "79269205603",
          "alc_time_start_weekdays": "08:00",
          "alc_time_end_weekdays": "22:30",
          "alc_time_start_weekend": "08:00",
          "alc_time_end_weekend": "22:30",
          "alc_time_start_sunday": null,
          "alc_time_end_sunday": null,
          "zru": 4189,
          "discount_card": 2020536430971,
          "gmt": "3",
          "schedule": "09:00-22:05",
          "stations": [
            {
              "station_id": 139,
              "name": "Курская",
              "latitude": "55.75858978",
              "longitude": "37.6600445",
              "city_id": 664,
              "pivot": {
                "shop_id": 5921,
                "station_id": 139
              }
            },
            {
              "station_id": 146,
              "name": "Чкаловская МСК",
              "latitude": "55.75593028",
              "longitude": "37.6592635",
              "city_id": 664,
              "pivot": {
                "shop_id": 5921,
                "station_id": 146
              }
            }
          ]
        },
        {
          "dist": 2392,
          "shop_id": 9476,
          "name": "ул. Фадеева, 5",
          "latitude": "55.774604",
          "longitude": "37.5986528",
          "is_plus": false,
          "is_beer": false,
          "city_id": 664,
          "no_alcohol": false,
          "phone": "79253261454",
          "alc_time_start_weekdays": "08:00",
          "alc_time_end_weekdays": "22:30",
          "alc_time_start_weekend": "08:00",
          "alc_time_end_weekend": "22:30",
          "alc_time_start_sunday": null,
          "alc_time_end_sunday": null,
          "zru": 4156,
          "discount_card": 2020536453789,
          "gmt": "3",
          "schedule": "09:00-22:05",
          "stations": [
            {
              "station_id": 77,
              "name": "Менделеевская",
              "latitude": "55.78181778",
              "longitude": "37.5986895",
              "city_id": 664,
              "pivot": {
                "shop_id": 9476,
                "station_id": 77
              }
            },
            {
              "station_id": 236,
              "name": "Маяковская МСК",
              "latitude": "55.76995978",
              "longitude": "37.595914",
              "city_id": 664,
              "pivot": {
                "shop_id": 9476,
                "station_id": 236
              }
            },
            {
              "station_id": 237,
              "name": "Новослободская",
              "latitude": "55.77956478",
              "longitude": "37.6014205",
              "city_id": 664,
              "pivot": {
                "shop_id": 9476,
                "station_id": 237
              }
            }
          ]
        },
        {
          "dist": 2512,
          "shop_id": 4294,
          "name": "наб. Котельническая, 33/1",
          "latitude": "55.741051",
          "longitude": "37.6476545",
          "is_plus": false,
          "is_beer": false,
          "city_id": 664,
          "no_alcohol": false,
          "phone": "79250929239",
          "alc_time_start_weekdays": "08:00",
          "alc_time_end_weekdays": "22:30",
          "alc_time_start_weekend": "08:00",
          "alc_time_end_weekend": "22:30",
          "alc_time_start_sunday": null,
          "alc_time_end_sunday": null,
          "zru": 4189,
          "discount_card": 2020536419402,
          "gmt": "3",
          "schedule": "09:00-22:05",
          "stations": [
            {
              "station_id": 112,
              "name": "Таганская",
              "latitude": "55.74243278",
              "longitude": "37.6531455",
              "city_id": 664,
              "pivot": {
                "shop_id": 4294,
                "station_id": 112
              }
            },
            {
              "station_id": 113,
              "name": "Маркситская",
              "latitude": "55.74097828",
              "longitude": "37.656721",
              "city_id": 664,
              "pivot": {
                "shop_id": 4294,
                "station_id": 113
              }
            }
          ]
        },
        {
          "dist": 2563,
          "shop_id": 5056,
          "name": "ул. Садовая-Черногрязская, 11/2",
          "latitude": "55.765913",
          "longitude": "37.6541288",
          "is_plus": false,
          "is_beer": false,
          "city_id": 664,
          "no_alcohol": false,
          "phone": "79250929095",
          "alc_time_start_weekdays": "08:00",
          "alc_time_end_weekdays": "22:30",
          "alc_time_start_weekend": "08:00",
          "alc_time_end_weekend": "22:30",
          "alc_time_start_sunday": null,
          "alc_time_end_sunday": null,
          "zru": 4189,
          "discount_card": 2020536422792,
          "gmt": "3",
          "schedule": "08:00-22:05",
          "stations": [
            {
              "station_id": 138,
              "name": "Красные ворота",
              "latitude": "55.76879528",
              "longitude": "37.6488875",
              "city_id": 664,
              "pivot": {
                "shop_id": 5056,
                "station_id": 138
              }
            },
            {
              "station_id": 139,
              "name": "Курская",
              "latitude": "55.75858978",
              "longitude": "37.6600445",
              "city_id": 664,
              "pivot": {
                "shop_id": 5056,
                "station_id": 139
              }
            }
          ]
        },
        {
          "dist": 2630,
          "shop_id": 11576,
          "name": "пр-кт Мира, 19, стр. 1",
          "latitude": "55.77794",
          "longitude": "37.632215",
          "is_plus": false,
          "is_beer": false,
          "city_id": 664,
          "no_alcohol": false,
          "phone": "79253014264",
          "alc_time_start_weekdays": "08:00",
          "alc_time_end_weekdays": "22:30",
          "alc_time_start_weekend": "08:00",
          "alc_time_end_weekend": "22:30",
          "alc_time_start_sunday": null,
          "alc_time_end_sunday": null,
          "zru": 2106,
          "discount_card": 2020536486916,
          "gmt": "3",
          "schedule": "09:00-22:05",
          "stations": [
            {
              "station_id": 121,
              "name": "Сухаревская",
              "latitude": "55.77231478",
              "longitude": "37.6323225",
              "city_id": 664,
              "pivot": {
                "shop_id": 11576,
                "station_id": 121
              }
            },
            {
              "station_id": 123,
              "name": "Проспект Мира",
              "latitude": "55.77963078",
              "longitude": "37.6334635",
              "city_id": 664,
              "pivot": {
                "shop_id": 11576,
                "station_id": 123
              }
            }
          ]
        },
        {
          "dist": 2660,
          "shop_id": 9421,
          "name": "ул. Александра Невского, 1",
          "latitude": "55.775292",
          "longitude": "37.5925972",
          "is_plus": false,
          "is_beer": false,
          "city_id": 664,
          "no_alcohol": false,
          "phone": "79257273105",
          "alc_time_start_weekdays": "08:00",
          "alc_time_end_weekdays": "22:30",
          "alc_time_start_weekend": "08:00",
          "alc_time_end_weekend": "22:30",
          "alc_time_start_sunday": null,
          "alc_time_end_sunday": null,
          "zru": 4156,
          "discount_card": 2020536453468,
          "gmt": "3",
          "schedule": "09:00-22:05",
          "stations": [
            {
              "station_id": 78,
              "name": "Белорусская",
              "latitude": "55.77715528",
              "longitude": "37.5862125",
              "city_id": 664,
              "pivot": {
                "shop_id": 9421,
                "station_id": 78
              }
            },
            {
              "station_id": 236,
              "name": "Маяковская МСК",
              "latitude": "55.76995978",
              "longitude": "37.595914",
              "city_id": 664,
              "pivot": {
                "shop_id": 9421,
                "station_id": 236
              }
            }
          ]
        },
        {
          "dist": 2711,
          "shop_id": 8123,
          "name": "б-р Смоленский, 3-5, стр 1б",
          "latitude": "55.739995",
          "longitude": "37.5843457",
          "is_plus": false,
          "is_beer": false,
          "city_id": 664,
          "no_alcohol": false,
          "phone": "79253687550",
          "alc_time_start_weekdays": "08:00",
          "alc_time_end_weekdays": "22:30",
          "alc_time_start_weekend": "08:00",
          "alc_time_end_weekend": "22:30",
          "alc_time_start_sunday": null,
          "alc_time_end_sunday": null,
          "zru": 4807,
          "discount_card": 2020536445319,
          "gmt": "3",
          "schedule": "09:00-22:05",
          "stations": []
        },
        {
          "dist": 2803,
          "shop_id": 5882,
          "name": "пер. Астраханский, 1/15",
          "latitude": "55.777522",
          "longitude": "37.6401118",
          "is_plus": false,
          "is_beer": false,
          "city_id": 664,
          "no_alcohol": false,
          "phone": "79269285681",
          "alc_time_start_weekdays": "08:00",
          "alc_time_end_weekdays": "22:30",
          "alc_time_start_weekend": "08:00",
          "alc_time_end_weekend": "22:30",
          "alc_time_start_sunday": null,
          "alc_time_end_sunday": null,
          "zru": 2106,
          "discount_card": 2020536428886,
          "gmt": "3",
          "schedule": "09:00-22:05",
          "stations": [
            {
              "station_id": 121,
              "name": "Сухаревская",
              "latitude": "55.77231478",
              "longitude": "37.6323225",
              "city_id": 664,
              "pivot": {
                "shop_id": 5882,
                "station_id": 121
              }
            },
            {
              "station_id": 123,
              "name": "Проспект Мира",
              "latitude": "55.77963078",
              "longitude": "37.6334635",
              "city_id": 664,
              "pivot": {
                "shop_id": 5882,
                "station_id": 123
              }
            }
          ]
        },
        {
          "dist": 2829,
          "shop_id": 5725,
          "name": "ул. Народная, 4",
          "latitude": "55.739262",
          "longitude": "37.6516106",
          "is_plus": false,
          "is_beer": false,
          "city_id": 664,
          "no_alcohol": false,
          "phone": "79266008435",
          "alc_time_start_weekdays": "08:00",
          "alc_time_end_weekdays": "22:30",
          "alc_time_start_weekend": "08:00",
          "alc_time_end_weekend": "22:30",
          "alc_time_start_sunday": null,
          "alc_time_end_sunday": null,
          "zru": 4189,
          "discount_card": 2020536436034,
          "gmt": "3",
          "schedule": "09:00-22:05",
          "stations": [
            {
              "station_id": 112,
              "name": "Таганская",
              "latitude": "55.74243278",
              "longitude": "37.6531455",
              "city_id": 664,
              "pivot": {
                "shop_id": 5725,
                "station_id": 112
              }
            },
            {
              "station_id": 113,
              "name": "Маркситская",
              "latitude": "55.74097828",
              "longitude": "37.656721",
              "city_id": 664,
              "pivot": {
                "shop_id": 5725,
                "station_id": 113
              }
            }
          ]
        },
        {
          "dist": 2887,
          "shop_id": 9833,
          "name": "пер. 1-й Неопалимовский, 15/7",
          "latitude": "55.740825",
          "longitude": "37.5796523",
          "is_plus": false,
          "is_beer": false,
          "city_id": 664,
          "no_alcohol": false,
          "phone": "79253274523",
          "alc_time_start_weekdays": "08:00",
          "alc_time_end_weekdays": "22:30",
          "alc_time_start_weekend": "08:00",
          "alc_time_end_weekend": "22:30",
          "alc_time_start_sunday": null,
          "alc_time_end_sunday": null,
          "zru": 4807,
          "discount_card": 2020536459255,
          "gmt": "3",
          "schedule": "09:00-22:05",
          "stations": [
            {
              "station_id": 244,
              "name": "Киевская",
              "latitude": "55.74358828",
              "longitude": "37.5655865",
              "city_id": 664,
              "pivot": {
                "shop_id": 9833,
                "station_id": 244
              }
            },
            {
              "station_id": 245,
              "name": "Смоленская",
              "latitude": "55.74875628",
              "longitude": "37.5821605",
              "city_id": 664,
              "pivot": {
                "shop_id": 9833,
                "station_id": 245
              }
            }
          ]
        },
        {
          "dist": 2936,
          "shop_id": 5889,
          "name": "ул. Новорязанская, 2/7",
          "latitude": "55.771581",
          "longitude": "37.654959",
          "is_plus": false,
          "is_beer": false,
          "city_id": 664,
          "no_alcohol": false,
          "phone": "79250035964",
          "alc_time_start_weekdays": "08:00",
          "alc_time_end_weekdays": "22:30",
          "alc_time_start_weekend": "08:00",
          "alc_time_end_weekend": "22:30",
          "alc_time_start_sunday": null,
          "alc_time_end_sunday": null,
          "zru": 4189,
          "discount_card": 2020536431282,
          "gmt": "3",
          "schedule": "08:00-22:05",
          "stations": [
            {
              "station_id": 53,
              "name": "Комсомольская",
              "latitude": "55.77387928",
              "longitude": "37.6541335",
              "city_id": 664,
              "pivot": {
                "shop_id": 5889,
                "station_id": 53
              }
            },
            {
              "station_id": 138,
              "name": "Красные ворота",
              "latitude": "55.76879528",
              "longitude": "37.6488875",
              "city_id": 664,
              "pivot": {
                "shop_id": 5889,
                "station_id": 138
              }
            }
          ]
        },
        {
          "dist": 3016,
          "shop_id": 8858,
          "name": "ул. Николоямская, 45с1",
          "latitude": "55.74719",
          "longitude": "37.662982",
          "is_plus": false,
          "is_beer": false,
          "city_id": 664,
          "no_alcohol": false,
          "phone": "79295310186",
          "alc_time_start_weekdays": "08:00",
          "alc_time_end_weekdays": "22:30",
          "alc_time_start_weekend": "08:00",
          "alc_time_end_weekend": "22:30",
          "alc_time_start_sunday": null,
          "alc_time_end_sunday": null,
          "zru": 4189,
          "discount_card": 2020536448754,
          "gmt": "3",
          "schedule": "09:00-22:05",
          "stations": [
            {
              "station_id": 112,
              "name": "Таганская",
              "latitude": "55.74243278",
              "longitude": "37.6531455",
              "city_id": 664,
              "pivot": {
                "shop_id": 8858,
                "station_id": 112
              }
            },
            {
              "station_id": 113,
              "name": "Маркситская",
              "latitude": "55.74097828",
              "longitude": "37.656721",
              "city_id": 664,
              "pivot": {
                "shop_id": 8858,
                "station_id": 113
              }
            },
            {
              "station_id": 124,
              "name": "Площадь Ильича",
              "latitude": "55.74706928",
              "longitude": "37.6809485",
              "city_id": 664,
              "pivot": {
                "shop_id": 8858,
                "station_id": 124
              }
            }
          ]
        },
        {
          "dist": 3182,
          "shop_id": 9856,
          "name": "Фрунзенская набережная, 14",
          "latitude": "55.730691",
          "longitude": "37.5929998",
          "is_plus": false,
          "is_beer": false,
          "city_id": 664,
          "no_alcohol": false,
          "phone": "79253289320",
          "alc_time_start_weekdays": "08:00",
          "alc_time_end_weekdays": "22:30",
          "alc_time_start_weekend": "08:00",
          "alc_time_end_weekend": "22:30",
          "alc_time_start_sunday": null,
          "alc_time_end_sunday": null,
          "zru": 4807,
          "discount_card": 2020536485599,
          "gmt": "3",
          "schedule": "08:00-22:05",
          "stations": [
            {
              "station_id": 242,
              "name": "Парк Культуры",
              "latitude": "55.73530178",
              "longitude": "37.5928685",
              "city_id": 664,
              "pivot": {
                "shop_id": 9856,
                "station_id": 242
              }
            },
            {
              "station_id": 243,
              "name": "Фрунзенская МСК",
              "latitude": "55.72731328",
              "longitude": "37.580463",
              "city_id": 664,
              "pivot": {
                "shop_id": 9856,
                "station_id": 243
              }
            }
          ]
        },
        {
          "dist": 3566,
          "shop_id": 4551,
          "name": "ул. Сергия Радонежского, 2",
          "latitude": "55.746408",
          "longitude": "37.6717652",
          "is_plus": false,
          "is_beer": false,
          "city_id": 664,
          "no_alcohol": false,
          "phone": "79250929249",
          "alc_time_start_weekdays": "08:00",
          "alc_time_end_weekdays": "22:30",
          "alc_time_start_weekend": "08:00",
          "alc_time_end_weekend": "22:30",
          "alc_time_start_sunday": null,
          "alc_time_end_sunday": null,
          "zru": 4189,
          "discount_card": 2020536419235,
          "gmt": "3",
          "schedule": "09:00-22:05",
          "stations": [
            {
              "station_id": 113,
              "name": "Маркситская",
              "latitude": "55.74097828",
              "longitude": "37.656721",
              "city_id": 664,
              "pivot": {
                "shop_id": 4551,
                "station_id": 113
              }
            },
            {
              "station_id": 124,
              "name": "Площадь Ильича",
              "latitude": "55.74706928",
              "longitude": "37.6809485",
              "city_id": 664,
              "pivot": {
                "shop_id": 4551,
                "station_id": 124
              }
            },
            {
              "station_id": 125,
              "name": "Римская",
              "latitude": "55.74622778",
              "longitude": "37.681236",
              "city_id": 664,
              "pivot": {
                "shop_id": 4551,
                "station_id": 125
              }
            }
          ]
        },
        {
          "dist": 3628,
          "shop_id": 11770,
          "name": "пр-кт Кутузовский, 8",
          "latitude": "55.749172",
          "longitude": "37.560538",
          "is_plus": false,
          "is_beer": false,
          "city_id": 664,
          "no_alcohol": false,
          "phone": "79253054652",
          "alc_time_start_weekdays": "08:00",
          "alc_time_end_weekdays": "22:30",
          "alc_time_start_weekend": "08:00",
          "alc_time_end_weekend": "22:30",
          "alc_time_start_sunday": null,
          "alc_time_end_sunday": null,
          "zru": 4807,
          "discount_card": 2020536488255,
          "gmt": "3",
          "schedule": "09:00-22:05",
          "stations": [
            {
              "station_id": 244,
              "name": "Киевская",
              "latitude": "55.74358828",
              "longitude": "37.5655865",
              "city_id": 664,
              "pivot": {
                "shop_id": 11770,
                "station_id": 244
              }
            }
          ]
        },
        {
          "dist": 3714,
          "shop_id": 9889,
          "name": "пер. Б. Саввинский, 3",
          "latitude": "55.73558",
          "longitude": "37.5701055",
          "is_plus": false,
          "is_beer": false,
          "city_id": 664,
          "no_alcohol": false,
          "phone": "79265975365",
          "alc_time_start_weekdays": "08:00",
          "alc_time_end_weekdays": "22:30",
          "alc_time_start_weekend": "08:00",
          "alc_time_end_weekend": "22:30",
          "alc_time_start_sunday": null,
          "alc_time_end_sunday": null,
          "zru": 4807,
          "discount_card": 2020536484196,
          "gmt": "3",
          "schedule": "09:00-22:05",
          "stations": [
            {
              "station_id": 243,
              "name": "Фрунзенская МСК",
              "latitude": "55.72731328",
              "longitude": "37.580463",
              "city_id": 664,
              "pivot": {
                "shop_id": 9889,
                "station_id": 243
              }
            },
            {
              "station_id": 244,
              "name": "Киевская",
              "latitude": "55.74358828",
              "longitude": "37.5655865",
              "city_id": 664,
              "pivot": {
                "shop_id": 9889,
                "station_id": 244
              }
            }
          ]
        },
        {
          "dist": 3861,
          "shop_id": 2496,
          "name": "пер. 2-й Кожевнический, 1",
          "latitude": "55.72682",
          "longitude": "37.6512055",
          "is_plus": true,
          "is_beer": false,
          "city_id": 664,
          "no_alcohol": false,
          "phone": "79263705031",
          "alc_time_start_weekdays": "08:00",
          "alc_time_end_weekdays": "22:30",
          "alc_time_start_weekend": "08:00",
          "alc_time_end_weekend": "22:30",
          "alc_time_start_sunday": null,
          "alc_time_end_sunday": null,
          "zru": 4159,
          "discount_card": 2020536477181,
          "gmt": "3",
          "schedule": "08:00-22:05",
          "stations": [
            {
              "station_id": 44,
              "name": "Павелецкая",
              "latitude": "55.72979728",
              "longitude": "37.6389525",
              "city_id": 664,
              "pivot": {
                "shop_id": 2496,
                "station_id": 44
              }
            },
            {
              "station_id": 45,
              "name": "Пролетарская",
              "latitude": "55.73165728",
              "longitude": "37.6647785",
              "city_id": 664,
              "pivot": {
                "shop_id": 2496,
                "station_id": 45
              }
            }
          ]
        },
        {
          "dist": 3914,
          "shop_id": 3516,
          "name": "ул. Бутырский Вал, 52",
          "latitude": "55.78693",
          "longitude": "37.58801678",
          "is_plus": false,
          "is_beer": false,
          "city_id": 664,
          "no_alcohol": false,
          "phone": "79265205893",
          "alc_time_start_weekdays": "08:00",
          "alc_time_end_weekdays": "22:30",
          "alc_time_start_weekend": "08:00",
          "alc_time_end_weekend": "22:30",
          "alc_time_start_sunday": null,
          "alc_time_end_sunday": null,
          "zru": 4156,
          "discount_card": 2020536412953,
          "gmt": "3",
          "schedule": "09:00-22:05",
          "stations": [
            {
              "station_id": 76,
              "name": "Савёловская",
              "latitude": "55.79391028",
              "longitude": "37.5879545",
              "city_id": 664,
              "pivot": {
                "shop_id": 3516,
                "station_id": 76
              }
            },
            {
              "station_id": 78,
              "name": "Белорусская",
              "latitude": "55.77715528",
              "longitude": "37.5862125",
              "city_id": 664,
              "pivot": {
                "shop_id": 3516,
                "station_id": 78
              }
            }
          ]
        },
        {
          "dist": 3926,
          "shop_id": 8366,
          "name": "ул. Волочаевская, 18",
          "latitude": "55.754709",
          "longitude": "37.680014",
          "is_plus": false,
          "is_beer": false,
          "city_id": 664,
          "no_alcohol": false,
          "phone": "79259545066",
          "alc_time_start_weekdays": "08:00",
          "alc_time_end_weekdays": "22:30",
          "alc_time_start_weekend": "08:00",
          "alc_time_end_weekend": "22:30",
          "alc_time_start_sunday": null,
          "alc_time_end_sunday": null,
          "zru": 4189,
          "discount_card": 2020536456773,
          "gmt": "3",
          "schedule": "09:00-22:05",
          "stations": [
            {
              "station_id": 124,
              "name": "Площадь Ильича",
              "latitude": "55.74706928",
              "longitude": "37.6809485",
              "city_id": 664,
              "pivot": {
                "shop_id": 8366,
                "station_id": 124
              }
            },
            {
              "station_id": 125,
              "name": "Римская",
              "latitude": "55.74622778",
              "longitude": "37.681236",
              "city_id": 664,
              "pivot": {
                "shop_id": 8366,
                "station_id": 125
              }
            },
            {
              "station_id": 146,
              "name": "Чкаловская МСК",
              "latitude": "55.75593028",
              "longitude": "37.6592635",
              "city_id": 664,
              "pivot": {
                "shop_id": 8366,
                "station_id": 146
              }
            }
          ]
        },
        {
          "dist": 4065,
          "shop_id": 6673,
          "name": "ул. Бауманская, 58А",
          "latitude": "55.76832",
          "longitude": "37.6783671",
          "is_plus": false,
          "is_beer": false,
          "city_id": 664,
          "no_alcohol": false,
          "phone": "79266006187",
          "alc_time_start_weekdays": "08:00",
          "alc_time_end_weekdays": "22:30",
          "alc_time_start_weekend": "08:00",
          "alc_time_end_weekend": "22:30",
          "alc_time_start_sunday": null,
          "alc_time_end_sunday": null,
          "zru": 4189,
          "discount_card": 2020536436027,
          "gmt": "3",
          "schedule": "08:00-22:05",
          "stations": [
            {
              "station_id": 6,
              "name": "Бауманская",
              "latitude": "55.77240578",
              "longitude": "37.6790355",
              "city_id": 664,
              "pivot": {
                "shop_id": 6673,
                "station_id": 6
              }
            },
            {
              "station_id": 52,
              "name": "Красносельская",
              "latitude": "55.78005628",
              "longitude": "37.6660635",
              "city_id": 664,
              "pivot": {
                "shop_id": 6673,
                "station_id": 52
              }
            },
            {
              "station_id": 139,
              "name": "Курская",
              "latitude": "55.75858978",
              "longitude": "37.6600445",
              "city_id": 664,
              "pivot": {
                "shop_id": 6673,
                "station_id": 139
              }
            }
          ]
        },
        {
          "dist": 4077,
          "shop_id": 9439,
          "name": "ул. Большая Серпуховская, 60",
          "latitude": "55.719466",
          "longitude": "37.6256657",
          "is_plus": false,
          "is_beer": false,
          "city_id": 664,
          "no_alcohol": false,
          "phone": "79253364055",
          "alc_time_start_weekdays": "08:00",
          "alc_time_end_weekdays": "22:30",
          "alc_time_start_weekend": "08:00",
          "alc_time_end_weekend": "22:30",
          "alc_time_start_sunday": null,
          "alc_time_end_sunday": null,
          "zru": 4159,
          "discount_card": 2020536454137,
          "gmt": "3",
          "schedule": "09:00-22:05",
          "stations": [
            {
              "station_id": 88,
              "name": "Серпуховская",
              "latitude": "55.72687228",
              "longitude": "37.6249925",
              "city_id": 664,
              "pivot": {
                "shop_id": 9439,
                "station_id": 88
              }
            },
            {
              "station_id": 89,
              "name": "Тульская",
              "latitude": "55.70884028",
              "longitude": "37.6226115",
              "city_id": 664,
              "pivot": {
                "shop_id": 9439,
                "station_id": 89
              }
            },
            {
              "station_id": 286,
              "name": "Добрынинская",
              "latitude": "55.729072",
              "longitude": "37.622536",
              "city_id": 664,
              "pivot": {
                "shop_id": 9439,
                "station_id": 286
              }
            }
          ]
        },
        {
          "dist": 4104,
          "shop_id": 13188,
          "name": "проезд Жуков, 21 Б",
          "latitude": "55.722644",
          "longitude": "37.646022",
          "is_plus": false,
          "is_beer": false,
          "city_id": 664,
          "no_alcohol": false,
          "phone": "79296124814",
          "alc_time_start_weekdays": "08:00",
          "alc_time_end_weekdays": "22:30",
          "alc_time_start_weekend": "08:00",
          "alc_time_end_weekend": "22:30",
          "alc_time_start_sunday": null,
          "alc_time_end_sunday": null,
          "zru": 4159,
          "discount_card": 2020536778561,
          "gmt": "3",
          "schedule": "09:00-22:05",
          "stations": [
            {
              "station_id": 44,
              "name": "Павелецкая",
              "latitude": "55.72979728",
              "longitude": "37.6389525",
              "city_id": 664,
              "pivot": {
                "shop_id": 13188,
                "station_id": 44
              }
            },
            {
              "station_id": 88,
              "name": "Серпуховская",
              "latitude": "55.72687228",
              "longitude": "37.6249925",
              "city_id": 664,
              "pivot": {
                "shop_id": 13188,
                "station_id": 88
              }
            }
          ]
        },
        {
          "dist": 4145,
          "shop_id": 5896,
          "name": "пр. Ленинградский, 26",
          "latitude": "55.783135",
          "longitude": "37.5721837",
          "is_plus": false,
          "is_beer": false,
          "city_id": 664,
          "no_alcohol": false,
          "phone": "79255560089",
          "alc_time_start_weekdays": "08:00",
          "alc_time_end_weekdays": "22:30",
          "alc_time_start_weekend": "08:00",
          "alc_time_end_weekend": "22:30",
          "alc_time_start_sunday": null,
          "alc_time_end_sunday": null,
          "zru": 4156,
          "discount_card": 2020536429104,
          "gmt": "3",
          "schedule": "08:00-22:05",
          "stations": [
            {
              "station_id": 78,
              "name": "Белорусская",
              "latitude": "55.77715528",
              "longitude": "37.5862125",
              "city_id": 664,
              "pivot": {
                "shop_id": 5896,
                "station_id": 78
              }
            },
            {
              "station_id": 83,
              "name": "Динамо",
              "latitude": "55.78970428",
              "longitude": "37.5582115",
              "city_id": 664,
              "pivot": {
                "shop_id": 5896,
                "station_id": 83
              }
            }
          ]
        },
        {
          "dist": 4165,
          "shop_id": 3385,
          "name": "пр. Шмитовский,14",
          "latitude": "55.75848",
          "longitude": "37.55089276",
          "is_plus": false,
          "is_beer": false,
          "city_id": 664,
          "no_alcohol": false,
          "phone": "79265219167",
          "alc_time_start_weekdays": "08:00",
          "alc_time_end_weekdays": "22:30",
          "alc_time_start_weekend": "08:00",
          "alc_time_end_weekend": "22:30",
          "alc_time_start_sunday": null,
          "alc_time_end_sunday": null,
          "zru": 4807,
          "discount_card": 2020536412939,
          "gmt": "3",
          "schedule": "08:00-22:05",
          "stations": [
            {
              "station_id": 30,
              "name": "Выставочная",
              "latitude": "55.74954728",
              "longitude": "37.5430215",
              "city_id": 664,
              "pivot": {
                "shop_id": 3385,
                "station_id": 30
              }
            },
            {
              "station_id": 31,
              "name": "Деловой центр",
              "latitude": "55.74862478",
              "longitude": "37.5431915",
              "city_id": 664,
              "pivot": {
                "shop_id": 3385,
                "station_id": 31
              }
            },
            {
              "station_id": 72,
              "name": "Улица 1905 года",
              "latitude": "55.76445528",
              "longitude": "37.5610595",
              "city_id": 664,
              "pivot": {
                "shop_id": 3385,
                "station_id": 72
              }
            }
          ]
        },
        {
          "dist": 4209,
          "shop_id": 6505,
          "name": "ул. Сущевский Вал, 41",
          "latitude": "55.793363",
          "longitude": "37.6086623",
          "is_plus": false,
          "is_beer": false,
          "city_id": 664,
          "no_alcohol": false,
          "phone": "79253298569",
          "alc_time_start_weekdays": "08:00",
          "alc_time_end_weekdays": "22:30",
          "alc_time_start_weekend": "08:00",
          "alc_time_end_weekend": "22:30",
          "alc_time_start_sunday": null,
          "alc_time_end_sunday": null,
          "zru": 2106,
          "discount_card": 2020536491415,
          "gmt": "3",
          "schedule": "09:00-22:05",
          "stations": [
            {
              "station_id": 76,
              "name": "Савёловская",
              "latitude": "55.79391028",
              "longitude": "37.5879545",
              "city_id": 664,
              "pivot": {
                "shop_id": 6505,
                "station_id": 76
              }
            },
            {
              "station_id": 246,
              "name": "Марьина Роща",
              "latitude": "55.79506878",
              "longitude": "37.6164855",
              "city_id": 664,
              "pivot": {
                "shop_id": 6505,
                "station_id": 246
              }
            }
          ]
        },
        {
          "dist": 4360,
          "shop_id": 3701,
          "name": "ул. Дубининская, 84",
          "latitude": "55.717702",
          "longitude": "37.6335701",
          "is_plus": false,
          "is_beer": false,
          "city_id": 664,
          "no_alcohol": false,
          "phone": "79265212118",
          "alc_time_start_weekdays": "08:00",
          "alc_time_end_weekdays": "22:30",
          "alc_time_start_weekend": "08:00",
          "alc_time_end_weekend": "22:30",
          "alc_time_start_sunday": null,
          "alc_time_end_sunday": null,
          "zru": 4159,
          "discount_card": 2020536413202,
          "gmt": "3",
          "schedule": "09:00-22:05",
          "stations": [
            {
              "station_id": 44,
              "name": "Павелецкая",
              "latitude": "55.72979728",
              "longitude": "37.6389525",
              "city_id": 664,
              "pivot": {
                "shop_id": 3701,
                "station_id": 44
              }
            },
            {
              "station_id": 88,
              "name": "Серпуховская",
              "latitude": "55.72687228",
              "longitude": "37.6249925",
              "city_id": 664,
              "pivot": {
                "shop_id": 3701,
                "station_id": 88
              }
            },
            {
              "station_id": 89,
              "name": "Тульская",
              "latitude": "55.70884028",
              "longitude": "37.6226115",
              "city_id": 664,
              "pivot": {
                "shop_id": 3701,
                "station_id": 89
              }
            }
          ]
        },
        {
          "dist": 4439,
          "shop_id": 5784,
          "name": "ул. Люсиновская, 68",
          "latitude": "55.715988",
          "longitude": "37.6220078",
          "is_plus": false,
          "is_beer": false,
          "city_id": 664,
          "no_alcohol": false,
          "phone": "79255560084",
          "alc_time_start_weekdays": "08:00",
          "alc_time_end_weekdays": "22:30",
          "alc_time_start_weekend": "08:00",
          "alc_time_end_weekend": "22:30",
          "alc_time_start_sunday": null,
          "alc_time_end_sunday": null,
          "zru": 4159,
          "discount_card": 2020536429388,
          "gmt": "3",
          "schedule": "09:00-22:05",
          "stations": [
            {
              "station_id": 88,
              "name": "Серпуховская",
              "latitude": "55.72687228",
              "longitude": "37.6249925",
              "city_id": 664,
              "pivot": {
                "shop_id": 5784,
                "station_id": 88
              }
            },
            {
              "station_id": 89,
              "name": "Тульская",
              "latitude": "55.70884028",
              "longitude": "37.6226115",
              "city_id": 664,
              "pivot": {
                "shop_id": 5784,
                "station_id": 89
              }
            },
            {
              "station_id": 101,
              "name": "Шаболовская",
              "latitude": "55.71881578",
              "longitude": "37.6079245",
              "city_id": 664,
              "pivot": {
                "shop_id": 5784,
                "station_id": 101
              }
            }
          ]
        },
        {
          "dist": 4545,
          "shop_id": 8709,
          "name": "ул. Русаковская, 7, строение 3",
          "latitude": "55.782875",
          "longitude": "37.6717765",
          "is_plus": false,
          "is_beer": false,
          "city_id": 664,
          "no_alcohol": false,
          "phone": "79259888378",
          "alc_time_start_weekdays": "08:00",
          "alc_time_end_weekdays": "22:30",
          "alc_time_start_weekend": "08:00",
          "alc_time_end_weekend": "22:30",
          "alc_time_start_sunday": null,
          "alc_time_end_sunday": null,
          "zru": 2106,
          "discount_card": 2020536447139,
          "gmt": "3",
          "schedule": "09:00-22:05",
          "stations": [
            {
              "station_id": 52,
              "name": "Красносельская",
              "latitude": "55.78005628",
              "longitude": "37.6660635",
              "city_id": 664,
              "pivot": {
                "shop_id": 8709,
                "station_id": 52
              }
            },
            {
              "station_id": 53,
              "name": "Комсомольская",
              "latitude": "55.77387928",
              "longitude": "37.6541335",
              "city_id": 664,
              "pivot": {
                "shop_id": 8709,
                "station_id": 53
              }
            },
            {
              "station_id": 188,
              "name": "Сокольники",
              "latitude": "55.78919828",
              "longitude": "37.6796995",
              "city_id": 664,
              "pivot": {
                "shop_id": 8709,
                "station_id": 188
              }
            }
          ]
        },
        {
          "dist": 4562,
          "shop_id": 4706,
          "name": "ул. Беговая, 32",
          "latitude": "55.783032",
          "longitude": "37.562701",
          "is_plus": false,
          "is_beer": false,
          "city_id": 664,
          "no_alcohol": false,
          "phone": "79250929225",
          "alc_time_start_weekdays": "08:00",
          "alc_time_end_weekdays": "22:30",
          "alc_time_start_weekend": "08:00",
          "alc_time_end_weekend": "22:30",
          "alc_time_start_sunday": null,
          "alc_time_end_sunday": null,
          "zru": 4807,
          "discount_card": 2020536409571,
          "gmt": "3",
          "schedule": "09:00-22:05",
          "stations": [
            {
              "station_id": 83,
              "name": "Динамо",
              "latitude": "55.78970428",
              "longitude": "37.5582115",
              "city_id": 664,
              "pivot": {
                "shop_id": 4706,
                "station_id": 83
              }
            },
            {
              "station_id": 130,
              "name": "Беговая",
              "latitude": "55.77376778",
              "longitude": "37.544692",
              "city_id": 5596,
              "pivot": {
                "shop_id": 4706,
                "station_id": 130
              }
            },
            {
              "station_id": 279,
              "name": "Петровский парк",
              "latitude": "55.792744",
              "longitude": "37.558668",
              "city_id": 664,
              "pivot": {
                "shop_id": 4706,
                "station_id": 279
              }
            }
          ]
        },
        {
          "dist": 4603,
          "shop_id": 10379,
          "name": "ул. 2-ая Рыбинская, 12",
          "latitude": "55.790522",
          "longitude": "37.657424",
          "is_plus": false,
          "is_beer": false,
          "city_id": 664,
          "no_alcohol": false,
          "phone": "79251004904",
          "alc_time_start_weekdays": "08:00",
          "alc_time_end_weekdays": "22:30",
          "alc_time_start_weekend": "08:00",
          "alc_time_end_weekend": "22:30",
          "alc_time_start_sunday": null,
          "alc_time_end_sunday": null,
          "zru": 2106,
          "discount_card": 2020536490524,
          "gmt": "3",
          "schedule": "09:00-22:05",
          "stations": [
            {
              "station_id": 52,
              "name": "Красносельская",
              "latitude": "55.78005628",
              "longitude": "37.6660635",
              "city_id": 664,
              "pivot": {
                "shop_id": 10379,
                "station_id": 52
              }
            },
            {
              "station_id": 188,
              "name": "Сокольники",
              "latitude": "55.78919828",
              "longitude": "37.6796995",
              "city_id": 664,
              "pivot": {
                "shop_id": 10379,
                "station_id": 188
              }
            },
            {
              "station_id": 206,
              "name": "Рижская",
              "latitude": "55.79254675",
              "longitude": "37.63610354",
              "city_id": 664,
              "pivot": {
                "shop_id": 10379,
                "station_id": 206
              }
            }
          ]
        },
        {
          "dist": 4682,
          "shop_id": 9614,
          "name": "пр-т Кутузовский, 27",
          "latitude": "55.743643",
          "longitude": "37.54568",
          "is_plus": false,
          "is_beer": false,
          "city_id": 664,
          "no_alcohol": false,
          "phone": "79264984495",
          "alc_time_start_weekdays": "08:00",
          "alc_time_end_weekdays": "22:30",
          "alc_time_start_weekend": "08:00",
          "alc_time_end_weekend": "22:30",
          "alc_time_start_sunday": null,
          "alc_time_end_sunday": null,
          "zru": 4807,
          "discount_card": 2020536455585,
          "gmt": "3",
          "schedule": "09:00-22:05",
          "stations": [
            {
              "station_id": 30,
              "name": "Выставочная",
              "latitude": "55.74954728",
              "longitude": "37.5430215",
              "city_id": 664,
              "pivot": {
                "shop_id": 9614,
                "station_id": 30
              }
            },
            {
              "station_id": 82,
              "name": "Кутузовская",
              "latitude": "55.74044128",
              "longitude": "37.5342445",
              "city_id": 664,
              "pivot": {
                "shop_id": 9614,
                "station_id": 82
              }
            },
            {
              "station_id": 287,
              "name": "Студенческая",
              "latitude": "55.738833",
              "longitude": "37.548503",
              "city_id": 664,
              "pivot": {
                "shop_id": 9614,
                "station_id": 287
              }
            }
          ]
        },
        {
          "dist": 4726,
          "shop_id": 1983,
          "name": "б-р Красногвардейский, 7а",
          "latitude": "55.76003",
          "longitude": "37.5421405",
          "is_plus": false,
          "is_beer": false,
          "city_id": 664,
          "no_alcohol": false,
          "phone": "79269043929",
          "alc_time_start_weekdays": "08:00",
          "alc_time_end_weekdays": "22:30",
          "alc_time_start_weekend": "08:00",
          "alc_time_end_weekend": "22:30",
          "alc_time_start_sunday": null,
          "alc_time_end_sunday": null,
          "zru": 4807,
          "discount_card": 2020536474616,
          "gmt": "3",
          "schedule": "09:00-22:05",
          "stations": [
            {
              "station_id": 29,
              "name": "Шелепиха",
              "latitude": "55.75678628",
              "longitude": "37.526043",
              "city_id": 664,
              "pivot": {
                "shop_id": 1983,
                "station_id": 29
              }
            },
            {
              "station_id": 30,
              "name": "Выставочная",
              "latitude": "55.74954728",
              "longitude": "37.5430215",
              "city_id": 664,
              "pivot": {
                "shop_id": 1983,
                "station_id": 30
              }
            }
          ]
        },
        {
          "dist": 4789,
          "shop_id": 12901,
          "name": "ул. Симоновский Вал, 15",
          "latitude": "55.721924",
          "longitude": "37.664473",
          "is_plus": false,
          "is_beer": false,
          "city_id": 664,
          "no_alcohol": false,
          "phone": "79253004093",
          "alc_time_start_weekdays": "08:00",
          "alc_time_end_weekdays": "22:30",
          "alc_time_start_weekend": "08:00",
          "alc_time_end_weekend": "22:30",
          "alc_time_start_sunday": null,
          "alc_time_end_sunday": null,
          "zru": 4159,
          "discount_card": 2020536509707,
          "gmt": "3",
          "schedule": "09:00-22:05",
          "stations": [
            {
              "station_id": 45,
              "name": "Пролетарская",
              "latitude": "55.73165728",
              "longitude": "37.6647785",
              "city_id": 664,
              "pivot": {
                "shop_id": 12901,
                "station_id": 45
              }
            },
            {
              "station_id": 51,
              "name": "Дубровка",
              "latitude": "55.71807028",
              "longitude": "37.6762415",
              "city_id": 664,
              "pivot": {
                "shop_id": 12901,
                "station_id": 51
              }
            },
            {
              "station_id": 276,
              "name": "Крестьянская Застава",
              "latitude": "55.732307",
              "longitude": "37.665597",
              "city_id": 664,
              "pivot": {
                "shop_id": 12901,
                "station_id": 276
              }
            }
          ]
        },
        {
          "dist": 4843,
          "shop_id": 8727,
          "name": "ул. Большая Почтовая, 1/33, стр. 1",
          "latitude": "55.773773",
          "longitude": "37.6878385",
          "is_plus": false,
          "is_beer": false,
          "city_id": 664,
          "no_alcohol": false,
          "phone": "79257259239",
          "alc_time_start_weekdays": "08:00",
          "alc_time_end_weekdays": "22:30",
          "alc_time_start_weekend": "08:00",
          "alc_time_end_weekend": "22:30",
          "alc_time_start_sunday": null,
          "alc_time_end_sunday": null,
          "zru": 4189,
          "discount_card": 2020536447818,
          "gmt": "3",
          "schedule": "09:00-22:05",
          "stations": [
            {
              "station_id": 4,
              "name": "Электрозаводская",
              "latitude": "55.78206628",
              "longitude": "37.7052835",
              "city_id": 664,
              "pivot": {
                "shop_id": 8727,
                "station_id": 4
              }
            },
            {
              "station_id": 6,
              "name": "Бауманская",
              "latitude": "55.77240578",
              "longitude": "37.6790355",
              "city_id": 664,
              "pivot": {
                "shop_id": 8727,
                "station_id": 6
              }
            },
            {
              "station_id": 274,
              "name": "Лефортово",
              "latitude": "55.764595",
              "longitude": "37.704932",
              "city_id": 664,
              "pivot": {
                "shop_id": 8727,
                "station_id": 274
              }
            }
          ]
        },
        {
          "dist": 4967,
          "shop_id": 5893,
          "name": "ул. Н. Масловка, 20",
          "latitude": "55.79193",
          "longitude": "37.5705323",
          "is_plus": false,
          "is_beer": false,
          "city_id": 664,
          "no_alcohol": false,
          "phone": "79250928906",
          "alc_time_start_weekdays": "08:00",
          "alc_time_end_weekdays": "22:30",
          "alc_time_start_weekend": "08:00",
          "alc_time_end_weekend": "22:30",
          "alc_time_start_sunday": null,
          "alc_time_end_sunday": null,
          "zru": 4156,
          "discount_card": 2020536428114,
          "gmt": "3",
          "schedule": "09:00-22:05",
          "stations": [
            {
              "station_id": 76,
              "name": "Савёловская",
              "latitude": "55.79391028",
              "longitude": "37.5879545",
              "city_id": 664,
              "pivot": {
                "shop_id": 5893,
                "station_id": 76
              }
            },
            {
              "station_id": 83,
              "name": "Динамо",
              "latitude": "55.78970428",
              "longitude": "37.5582115",
              "city_id": 664,
              "pivot": {
                "shop_id": 5893,
                "station_id": 83
              }
            },
            {
              "station_id": 279,
              "name": "Петровский парк",
              "latitude": "55.792744",
              "longitude": "37.558668",
              "city_id": 664,
              "pivot": {
                "shop_id": 5893,
                "station_id": 279
              }
            }
          ]
        },
        {
          "dist": 4972,
          "shop_id": 11448,
          "name": "ул. Нижегородская, 17",
          "latitude": "55.737709",
          "longitude": "37.689932",
          "is_plus": false,
          "is_beer": false,
          "city_id": 664,
          "no_alcohol": false,
          "phone": "79259544987",
          "alc_time_start_weekdays": "08:00",
          "alc_time_end_weekdays": "22:30",
          "alc_time_start_weekend": "08:00",
          "alc_time_end_weekend": "22:30",
          "alc_time_start_sunday": null,
          "alc_time_end_sunday": null,
          "zru": 4189,
          "discount_card": 2020536489177,
          "gmt": "3",
          "schedule": "09:00-22:05",
          "stations": [
            {
              "station_id": 45,
              "name": "Пролетарская",
              "latitude": "55.73165728",
              "longitude": "37.6647785",
              "city_id": 664,
              "pivot": {
                "shop_id": 11448,
                "station_id": 45
              }
            },
            {
              "station_id": 124,
              "name": "Площадь Ильича",
              "latitude": "55.74706928",
              "longitude": "37.6809485",
              "city_id": 664,
              "pivot": {
                "shop_id": 11448,
                "station_id": 124
              }
            },
            {
              "station_id": 125,
              "name": "Римская",
              "latitude": "55.74622778",
              "longitude": "37.681236",
              "city_id": 664,
              "pivot": {
                "shop_id": 11448,
                "station_id": 125
              }
            }
          ]
        },
        {
          "dist": 5009,
          "shop_id": 6337,
          "name": "ул. Маленковская, 32/2",
          "latitude": "55.786868",
          "longitude": "37.675332",
          "is_plus": false,
          "is_beer": false,
          "city_id": 664,
          "no_alcohol": false,
          "phone": "79266034842",
          "alc_time_start_weekdays": "08:00",
          "alc_time_end_weekdays": "22:30",
          "alc_time_start_weekend": "08:00",
          "alc_time_end_weekend": "22:30",
          "alc_time_start_sunday": null,
          "alc_time_end_sunday": null,
          "zru": 2106,
          "discount_card": 2020536432852,
          "gmt": "3",
          "schedule": "09:00-22:05",
          "stations": [
            {
              "station_id": 52,
              "name": "Красносельская",
              "latitude": "55.78005628",
              "longitude": "37.6660635",
              "city_id": 664,
              "pivot": {
                "shop_id": 6337,
                "station_id": 52
              }
            },
            {
              "station_id": 53,
              "name": "Комсомольская",
              "latitude": "55.77387928",
              "longitude": "37.6541335",
              "city_id": 664,
              "pivot": {
                "shop_id": 6337,
                "station_id": 53
              }
            },
            {
              "station_id": 188,
              "name": "Сокольники",
              "latitude": "55.78919828",
              "longitude": "37.6796995",
              "city_id": 664,
              "pivot": {
                "shop_id": 6337,
                "station_id": 188
              }
            }
          ]
        },
        {
          "dist": 5092,
          "shop_id": 6117,
          "name": "пр. Шмитовский, 33",
          "latitude": "55.754926",
          "longitude": "37.5359301",
          "is_plus": false,
          "is_beer": false,
          "city_id": 664,
          "no_alcohol": false,
          "phone": "79266317068",
          "alc_time_start_weekdays": "08:00",
          "alc_time_end_weekdays": "22:30",
          "alc_time_start_weekend": "08:00",
          "alc_time_end_weekend": "22:30",
          "alc_time_start_sunday": null,
          "alc_time_end_sunday": null,
          "zru": 4807,
          "discount_card": 2020536434979,
          "gmt": "3",
          "schedule": "09:00-22:05",
          "stations": [
            {
              "station_id": 29,
              "name": "Шелепиха",
              "latitude": "55.75678628",
              "longitude": "37.526043",
              "city_id": 664,
              "pivot": {
                "shop_id": 6117,
                "station_id": 29
              }
            },
            {
              "station_id": 30,
              "name": "Выставочная",
              "latitude": "55.74954728",
              "longitude": "37.5430215",
              "city_id": 664,
              "pivot": {
                "shop_id": 6117,
                "station_id": 30
              }
            }
          ]
        },
        {
          "dist": 5207,
          "shop_id": 6816,
          "name": "ул. Орджоникидзе, 9",
          "latitude": "55.710141",
          "longitude": "37.5990308",
          "is_plus": false,
          "is_beer": false,
          "city_id": 664,
          "no_alcohol": false,
          "phone": "79266019640",
          "alc_time_start_weekdays": "08:00",
          "alc_time_end_weekdays": "22:30",
          "alc_time_start_weekend": "08:00",
          "alc_time_end_weekend": "22:30",
          "alc_time_start_sunday": null,
          "alc_time_end_sunday": null,
          "zru": 1175,
          "discount_card": 2020536434238,
          "gmt": "3",
          "schedule": "09:00-22:05",
          "stations": [
            {
              "station_id": 38,
              "name": "Площадь Гагарина",
              "latitude": "55.70677128",
              "longitude": "37.5865805",
              "city_id": 664,
              "pivot": {
                "shop_id": 6816,
                "station_id": 38
              }
            },
            {
              "station_id": 39,
              "name": "Ленинский проспект",
              "latitude": "55.70720228",
              "longitude": "37.5855835",
              "city_id": 664,
              "pivot": {
                "shop_id": 6816,
                "station_id": 39
              }
            },
            {
              "station_id": 101,
              "name": "Шаболовская",
              "latitude": "55.71881578",
              "longitude": "37.6079245",
              "city_id": 664,
              "pivot": {
                "shop_id": 6816,
                "station_id": 101
              }
            }
          ]
        },
        {
          "dist": 5216,
          "shop_id": 10814,
          "name": "Михайловский Верхн. 2-й проезд, 6",
          "latitude": "55.709678",
          "longitude": "37.602319",
          "is_plus": false,
          "is_beer": false,
          "city_id": 664,
          "no_alcohol": false,
          "phone": "79256042684",
          "alc_time_start_weekdays": "08:00",
          "alc_time_end_weekdays": "22:30",
          "alc_time_start_weekend": "08:00",
          "alc_time_end_weekend": "22:30",
          "alc_time_start_sunday": null,
          "alc_time_end_sunday": null,
          "zru": 1175,
          "discount_card": 2020536486831,
          "gmt": "3",
          "schedule": "09:00-22:05",
          "stations": [
            {
              "station_id": 38,
              "name": "Площадь Гагарина",
              "latitude": "55.70677128",
              "longitude": "37.5865805",
              "city_id": 664,
              "pivot": {
                "shop_id": 10814,
                "station_id": 38
              }
            },
            {
              "station_id": 39,
              "name": "Ленинский проспект",
              "latitude": "55.70720228",
              "longitude": "37.5855835",
              "city_id": 664,
              "pivot": {
                "shop_id": 10814,
                "station_id": 39
              }
            },
            {
              "station_id": 101,
              "name": "Шаболовская",
              "latitude": "55.71881578",
              "longitude": "37.6079245",
              "city_id": 664,
              "pivot": {
                "shop_id": 10814,
                "station_id": 101
              }
            }
          ]
        },
        {
          "dist": 5217,
          "shop_id": 7149,
          "name": "ул. Шарикоподшипниковская, 4",
          "latitude": "55.720053",
          "longitude": "37.6712153",
          "is_plus": false,
          "is_beer": false,
          "city_id": 664,
          "no_alcohol": false,
          "phone": "79255560663",
          "alc_time_start_weekdays": "08:00",
          "alc_time_end_weekdays": "22:30",
          "alc_time_start_weekend": "08:00",
          "alc_time_end_weekend": "22:30",
          "alc_time_start_sunday": null,
          "alc_time_end_sunday": null,
          "zru": 4159,
          "discount_card": 2020536437031,
          "gmt": "3",
          "schedule": "09:00-22:05",
          "stations": [
            {
              "station_id": 51,
              "name": "Дубровка",
              "latitude": "55.71807028",
              "longitude": "37.6762415",
              "city_id": 664,
              "pivot": {
                "shop_id": 7149,
                "station_id": 51
              }
            },
            {
              "station_id": 284,
              "name": "Волгоградский проспект",
              "latitude": "55.724347",
              "longitude": "37.68787",
              "city_id": 664,
              "pivot": {
                "shop_id": 7149,
                "station_id": 284
              }
            }
          ]
        },
        {
          "dist": 5239,
          "shop_id": 11328,
          "name": "ул. Велозаводская, 2",
          "latitude": "55.716564",
          "longitude": "37.663548",
          "is_plus": false,
          "is_beer": false,
          "city_id": 664,
          "no_alcohol": false,
          "phone": "79259545016",
          "alc_time_start_weekdays": "08:00",
          "alc_time_end_weekdays": "22:30",
          "alc_time_start_weekend": "08:00",
          "alc_time_end_weekend": "22:30",
          "alc_time_start_sunday": null,
          "alc_time_end_sunday": null,
          "zru": 4159,
          "discount_card": 2020536493891,
          "gmt": "3",
          "schedule": "09:00-22:05",
          "stations": [
            {
              "station_id": 50,
              "name": "Автозаводская",
              "latitude": "55.70662928",
              "longitude": "37.6570085",
              "city_id": 664,
              "pivot": {
                "shop_id": 11328,
                "station_id": 50
              }
            },
            {
              "station_id": 51,
              "name": "Дубровка",
              "latitude": "55.71807028",
              "longitude": "37.6762415",
              "city_id": 664,
              "pivot": {
                "shop_id": 11328,
                "station_id": 51
              }
            }
          ]
        },
        {
          "dist": 5570,
          "shop_id": 12584,
          "name": "Сетуньский 3-й проезд , 4",
          "latitude": "55.73296",
          "longitude": "37.538125",
          "is_plus": false,
          "is_beer": false,
          "city_id": 664,
          "no_alcohol": false,
          "phone": "79299424397",
          "alc_time_start_weekdays": "08:00",
          "alc_time_end_weekdays": "22:30",
          "alc_time_start_weekend": "08:00",
          "alc_time_end_weekend": "22:30",
          "alc_time_start_sunday": null,
          "alc_time_end_sunday": null,
          "zru": 4807,
          "discount_card": 2020536781400,
          "gmt": "3",
          "schedule": "09:00-22:05",
          "stations": []
        },
        {
          "dist": 5599,
          "shop_id": 13261,
          "name": "ул. Шарикоподшипниковская, 24",
          "latitude": "55.717518",
          "longitude": "37.675334",
          "is_plus": false,
          "is_beer": false,
          "city_id": 664,
          "no_alcohol": false,
          "phone": "79252251135",
          "alc_time_start_weekdays": "08:00",
          "alc_time_end_weekdays": "22:30",
          "alc_time_start_weekend": "08:00",
          "alc_time_end_weekend": "22:30",
          "alc_time_start_sunday": null,
          "alc_time_end_sunday": null,
          "zru": 4159,
          "discount_card": 2020536781837,
          "gmt": "3",
          "schedule": "09:00-22:05",
          "stations": []
        },
        {
          "dist": 5632,
          "shop_id": 13628,
          "name": "ул. Красноказарменная, 14а, кор. 4",
          "latitude": "55.751725",
          "longitude": "37.707009",
          "is_plus": false,
          "is_beer": false,
          "city_id": 664,
          "no_alcohol": false,
          "phone": "79299410781",
          "alc_time_start_weekdays": "08:00",
          "alc_time_end_weekdays": "22:30",
          "alc_time_start_weekend": "08:00",
          "alc_time_end_weekend": "22:30",
          "alc_time_start_sunday": null,
          "alc_time_end_sunday": null,
          "zru": null,
          "discount_card": 2020536783732,
          "gmt": "3",
          "schedule": "09:00-22:05",
          "stations": []
        },
        {
          "dist": 5749,
          "shop_id": 6217,
          "name": "ул. Велозаводская, 9",
          "latitude": "55.712131",
          "longitude": "37.6663868",
          "is_plus": false,
          "is_beer": false,
          "city_id": 664,
          "no_alcohol": false,
          "phone": "79266004457",
          "alc_time_start_weekdays": "08:00",
          "alc_time_end_weekdays": "22:30",
          "alc_time_start_weekend": "08:00",
          "alc_time_end_weekend": "22:30",
          "alc_time_start_sunday": null,
          "alc_time_end_sunday": null,
          "zru": 4159,
          "discount_card": 2020536433224,
          "gmt": "3",
          "schedule": "09:00-22:05",
          "stations": [
            {
              "station_id": 50,
              "name": "Автозаводская",
              "latitude": "55.70662928",
              "longitude": "37.6570085",
              "city_id": 664,
              "pivot": {
                "shop_id": 6217,
                "station_id": 50
              }
            },
            {
              "station_id": 51,
              "name": "Дубровка",
              "latitude": "55.71807028",
              "longitude": "37.6762415",
              "city_id": 664,
              "pivot": {
                "shop_id": 6217,
                "station_id": 51
              }
            }
          ]
        },
        {
          "dist": 5769,
          "shop_id": 3584,
          "name": "пер. 4-й Вятский, 20",
          "latitude": "55.80047",
          "longitude": "37.57030354",
          "is_plus": false,
          "is_beer": false,
          "city_id": 664,
          "no_alcohol": false,
          "phone": "79265214702",
          "alc_time_start_weekdays": "08:00",
          "alc_time_end_weekdays": "22:30",
          "alc_time_start_weekend": "08:00",
          "alc_time_end_weekend": "22:30",
          "alc_time_start_sunday": null,
          "alc_time_end_sunday": null,
          "zru": 4156,
          "discount_card": 2020536414940,
          "gmt": "3",
          "schedule": "09:00-22:05",
          "stations": [
            {
              "station_id": 76,
              "name": "Савёловская",
              "latitude": "55.79391028",
              "longitude": "37.5879545",
              "city_id": 664,
              "pivot": {
                "shop_id": 3584,
                "station_id": 76
              }
            },
            {
              "station_id": 79,
              "name": "Дмитровская",
              "latitude": "55.80788028",
              "longitude": "37.5808315",
              "city_id": 664,
              "pivot": {
                "shop_id": 3584,
                "station_id": 79
              }
            },
            {
              "station_id": 279,
              "name": "Петровский парк",
              "latitude": "55.792744",
              "longitude": "37.558668",
              "city_id": 664,
              "pivot": {
                "shop_id": 3584,
                "station_id": 279
              }
            }
          ]
        },
        {
          "dist": 5838,
          "shop_id": 5634,
          "name": "ул. Автозаводская, 4",
          "latitude": "55.709937",
          "longitude": "37.6626048",
          "is_plus": false,
          "is_beer": false,
          "city_id": 664,
          "no_alcohol": false,
          "phone": "79250928922",
          "alc_time_start_weekdays": "08:00",
          "alc_time_end_weekdays": "22:30",
          "alc_time_start_weekend": "08:00",
          "alc_time_end_weekend": "22:30",
          "alc_time_start_sunday": null,
          "alc_time_end_sunday": null,
          "zru": 4159,
          "discount_card": 2020536426318,
          "gmt": "3",
          "schedule": "08:00-22:05",
          "stations": [
            {
              "station_id": 50,
              "name": "Автозаводская",
              "latitude": "55.70662928",
              "longitude": "37.6570085",
              "city_id": 664,
              "pivot": {
                "shop_id": 5634,
                "station_id": 50
              }
            },
            {
              "station_id": 51,
              "name": "Дубровка",
              "latitude": "55.71807028",
              "longitude": "37.6762415",
              "city_id": 664,
              "pivot": {
                "shop_id": 5634,
                "station_id": 51
              }
            }
          ]
        },
        {
          "dist": 5874,
          "shop_id": 5197,
          "name": "ул. Юннатов, 7",
          "latitude": "55.798751",
          "longitude": "37.5625516",
          "is_plus": false,
          "is_beer": false,
          "city_id": 664,
          "no_alcohol": false,
          "phone": "79250929089",
          "alc_time_start_weekdays": "08:00",
          "alc_time_end_weekdays": "22:30",
          "alc_time_start_weekend": "08:00",
          "alc_time_end_weekend": "22:30",
          "alc_time_start_sunday": null,
          "alc_time_end_sunday": null,
          "zru": 4156,
          "discount_card": 2020536423164,
          "gmt": "3",
          "schedule": "09:00-22:05",
          "stations": [
            {
              "station_id": 76,
              "name": "Савёловская",
              "latitude": "55.79391028",
              "longitude": "37.5879545",
              "city_id": 664,
              "pivot": {
                "shop_id": 5197,
                "station_id": 76
              }
            },
            {
              "station_id": 83,
              "name": "Динамо",
              "latitude": "55.78970428",
              "longitude": "37.5582115",
              "city_id": 664,
              "pivot": {
                "shop_id": 5197,
                "station_id": 83
              }
            },
            {
              "station_id": 279,
              "name": "Петровский парк",
              "latitude": "55.792744",
              "longitude": "37.558668",
              "city_id": 664,
              "pivot": {
                "shop_id": 5197,
                "station_id": 279
              }
            }
          ]
        },
        {
          "dist": 5882,
          "shop_id": 5867,
          "name": "ул. Смирновская, 4Б",
          "latitude": "55.737034",
          "longitude": "37.7051421",
          "is_plus": false,
          "is_beer": false,
          "city_id": 664,
          "no_alcohol": false,
          "phone": "79250928867",
          "alc_time_start_weekdays": "08:00",
          "alc_time_end_weekdays": "22:30",
          "alc_time_start_weekend": "08:00",
          "alc_time_end_weekend": "22:30",
          "alc_time_start_sunday": null,
          "alc_time_end_sunday": null,
          "zru": 4189,
          "discount_card": 2020536428534,
          "gmt": "3",
          "schedule": "09:00-22:05",
          "stations": [
            {
              "station_id": 69,
              "name": "Нижегородская",
              "latitude": "55.73202728",
              "longitude": "37.72811",
              "city_id": 664,
              "pivot": {
                "shop_id": 5867,
                "station_id": 69
              }
            },
            {
              "station_id": 125,
              "name": "Римская",
              "latitude": "55.74622778",
              "longitude": "37.681236",
              "city_id": 664,
              "pivot": {
                "shop_id": 5867,
                "station_id": 125
              }
            }
          ]
        },
        {
          "dist": 6012,
          "shop_id": 8693,
          "name": "ул. Бутырская, 84",
          "latitude": "55.806267",
          "longitude": "37.582673",
          "is_plus": false,
          "is_beer": false,
          "city_id": 664,
          "no_alcohol": false,
          "phone": "79251387004",
          "alc_time_start_weekdays": "08:00",
          "alc_time_end_weekdays": "22:30",
          "alc_time_start_weekend": "08:00",
          "alc_time_end_weekend": "22:30",
          "alc_time_start_sunday": null,
          "alc_time_end_sunday": null,
          "zru": 2106,
          "discount_card": 2020536446965,
          "gmt": "3",
          "schedule": "09:00-22:05",
          "stations": [
            {
              "station_id": 76,
              "name": "Савёловская",
              "latitude": "55.79391028",
              "longitude": "37.5879545",
              "city_id": 664,
              "pivot": {
                "shop_id": 8693,
                "station_id": 76
              }
            },
            {
              "station_id": 79,
              "name": "Дмитровская",
              "latitude": "55.80788028",
              "longitude": "37.5808315",
              "city_id": 664,
              "pivot": {
                "shop_id": 8693,
                "station_id": 79
              }
            }
          ]
        },
        {
          "dist": 6036,
          "shop_id": 3528,
          "name": "ул. Башиловская, 26",
          "latitude": "55.804516",
          "longitude": "37.5746393",
          "is_plus": false,
          "is_beer": false,
          "city_id": 664,
          "no_alcohol": false,
          "phone": "79253674055",
          "alc_time_start_weekdays": "08:00",
          "alc_time_end_weekdays": "22:30",
          "alc_time_start_weekend": "08:00",
          "alc_time_end_weekend": "22:30",
          "alc_time_start_sunday": null,
          "alc_time_end_sunday": null,
          "zru": 4156,
          "discount_card": 2020536413752,
          "gmt": "3",
          "schedule": "09:00-22:05",
          "stations": [
            {
              "station_id": 76,
              "name": "Савёловская",
              "latitude": "55.79391028",
              "longitude": "37.5879545",
              "city_id": 664,
              "pivot": {
                "shop_id": 3528,
                "station_id": 76
              }
            },
            {
              "station_id": 79,
              "name": "Дмитровская",
              "latitude": "55.80788028",
              "longitude": "37.5808315",
              "city_id": 664,
              "pivot": {
                "shop_id": 3528,
                "station_id": 79
              }
            }
          ]
        },
        {
          "dist": 6091,
          "shop_id": 8367,
          "name": "пр-кт Кутузовский, 45",
          "latitude": "55.737076",
          "longitude": "37.5258545",
          "is_plus": false,
          "is_beer": false,
          "city_id": 664,
          "no_alcohol": false,
          "phone": "79295310054",
          "alc_time_start_weekdays": "08:00",
          "alc_time_end_weekdays": "22:30",
          "alc_time_start_weekend": "08:00",
          "alc_time_end_weekend": "22:30",
          "alc_time_start_sunday": null,
          "alc_time_end_sunday": null,
          "zru": 4807,
          "discount_card": 2020536444466,
          "gmt": "3",
          "schedule": "09:00-22:05",
          "stations": [
            {
              "station_id": 81,
              "name": "Парк Победы",
              "latitude": "55.73616378",
              "longitude": "37.5169255",
              "city_id": 664,
              "pivot": {
                "shop_id": 8367,
                "station_id": 81
              }
            },
            {
              "station_id": 82,
              "name": "Кутузовская",
              "latitude": "55.74044128",
              "longitude": "37.5342445",
              "city_id": 664,
              "pivot": {
                "shop_id": 8367,
                "station_id": 82
              }
            }
          ]
        },
        {
          "dist": 6157,
          "shop_id": 7194,
          "name": "пер. Подъемный, 1",
          "latitude": "55.737137",
          "longitude": "37.7099015",
          "is_plus": false,
          "is_beer": false,
          "city_id": 664,
          "no_alcohol": false,
          "phone": "79266052917",
          "alc_time_start_weekdays": "08:00",
          "alc_time_end_weekdays": "22:30",
          "alc_time_start_weekend": "08:00",
          "alc_time_end_weekend": "22:30",
          "alc_time_start_sunday": null,
          "alc_time_end_sunday": null,
          "zru": 4189,
          "discount_card": 2020536442967,
          "gmt": "3",
          "schedule": "09:00-22:05",
          "stations": [
            {
              "station_id": 69,
              "name": "Нижегородская",
              "latitude": "55.73202728",
              "longitude": "37.72811",
              "city_id": 664,
              "pivot": {
                "shop_id": 7194,
                "station_id": 69
              }
            },
            {
              "station_id": 71,
              "name": "Новохохловская",
              "latitude": "55.72445928",
              "longitude": "37.7178245",
              "city_id": 664,
              "pivot": {
                "shop_id": 7194,
                "station_id": 71
              }
            }
          ]
        },
        {
          "dist": 6184,
          "shop_id": 12039,
          "name": "ул. Гольяновская, 7, корп. 1",
          "latitude": "55.775388",
          "longitude": "37.709838",
          "is_plus": false,
          "is_beer": false,
          "city_id": 664,
          "no_alcohol": false,
          "phone": "79265317686",
          "alc_time_start_weekdays": "08:00",
          "alc_time_end_weekdays": "22:30",
          "alc_time_start_weekend": "08:00",
          "alc_time_end_weekend": "22:30",
          "alc_time_start_sunday": null,
          "alc_time_end_sunday": null,
          "zru": 4189,
          "discount_card": 2020536497141,
          "gmt": "3",
          "schedule": "09:00-22:05",
          "stations": [
            {
              "station_id": 4,
              "name": "Электрозаводская",
              "latitude": "55.78206628",
              "longitude": "37.7052835",
              "city_id": 664,
              "pivot": {
                "shop_id": 12039,
                "station_id": 4
              }
            },
            {
              "station_id": 5,
              "name": "Семёновская",
              "latitude": "55.78319225",
              "longitude": "37.71942886",
              "city_id": 664,
              "pivot": {
                "shop_id": 12039,
                "station_id": 5
              }
            },
            {
              "station_id": 274,
              "name": "Лефортово",
              "latitude": "55.764595",
              "longitude": "37.704932",
              "city_id": 664,
              "pivot": {
                "shop_id": 12039,
                "station_id": 274
              }
            }
          ]
        },
        {
          "dist": 6226,
          "shop_id": 9348,
          "name": "ул. Остроумовская М., 1А",
          "latitude": "55.794586",
          "longitude": "37.6891466",
          "is_plus": false,
          "is_beer": false,
          "city_id": 664,
          "no_alcohol": false,
          "phone": "79253239751",
          "alc_time_start_weekdays": "08:00",
          "alc_time_end_weekdays": "22:30",
          "alc_time_start_weekend": "08:00",
          "alc_time_end_weekend": "22:30",
          "alc_time_start_sunday": null,
          "alc_time_end_sunday": null,
          "zru": 2106,
          "discount_card": 2020536452249,
          "gmt": "3",
          "schedule": "09:00-22:05",
          "stations": [
            {
              "station_id": 4,
              "name": "Электрозаводская",
              "latitude": "55.78206628",
              "longitude": "37.7052835",
              "city_id": 664,
              "pivot": {
                "shop_id": 9348,
                "station_id": 4
              }
            },
            {
              "station_id": 75,
              "name": "Преображенская площадь",
              "latitude": "55.79616678",
              "longitude": "37.7150215",
              "city_id": 664,
              "pivot": {
                "shop_id": 9348,
                "station_id": 75
              }
            },
            {
              "station_id": 188,
              "name": "Сокольники",
              "latitude": "55.78919828",
              "longitude": "37.6796995",
              "city_id": 664,
              "pivot": {
                "shop_id": 9348,
                "station_id": 188
              }
            }
          ]
        },
        {
          "dist": 6341,
          "shop_id": 6100,
          "name": "ул. 6-я Кожуховская, 4",
          "latitude": "55.707042",
          "longitude": "37.6697436",
          "is_plus": false,
          "is_beer": false,
          "city_id": 664,
          "no_alcohol": false,
          "phone": "79269294090",
          "alc_time_start_weekdays": "08:00",
          "alc_time_end_weekdays": "22:30",
          "alc_time_start_weekend": "08:00",
          "alc_time_end_weekend": "22:30",
          "alc_time_start_sunday": null,
          "alc_time_end_sunday": null,
          "zru": 4159,
          "discount_card": 2020536430445,
          "gmt": "3",
          "schedule": "09:00-22:05",
          "stations": [
            {
              "station_id": 50,
              "name": "Автозаводская",
              "latitude": "55.70662928",
              "longitude": "37.6570085",
              "city_id": 664,
              "pivot": {
                "shop_id": 6100,
                "station_id": 50
              }
            },
            {
              "station_id": 51,
              "name": "Дубровка",
              "latitude": "55.71807028",
              "longitude": "37.6762415",
              "city_id": 664,
              "pivot": {
                "shop_id": 6100,
                "station_id": 51
              }
            }
          ]
        },
        {
          "dist": 6383,
          "shop_id": 9680,
          "name": "ш. Варшавское, 10, корп. 1",
          "latitude": "55.698442",
          "longitude": "37.6198994",
          "is_plus": false,
          "is_beer": false,
          "city_id": 664,
          "no_alcohol": false,
          "phone": "79253263504",
          "alc_time_start_weekdays": "08:00",
          "alc_time_end_weekdays": "22:30",
          "alc_time_start_weekend": "08:00",
          "alc_time_end_weekend": "22:30",
          "alc_time_start_sunday": null,
          "alc_time_end_sunday": null,
          "zru": 4159,
          "discount_card": 2020536454090,
          "gmt": "3",
          "schedule": "09:00-22:05",
          "stations": [
            {
              "station_id": 9,
              "name": "Нагатинская",
              "latitude": "55.68338628",
              "longitude": "37.6228635",
              "city_id": 664,
              "pivot": {
                "shop_id": 9680,
                "station_id": 9
              }
            },
            {
              "station_id": 10,
              "name": "Верхние котлы",
              "latitude": "55.68997328",
              "longitude": "37.6182375",
              "city_id": 664,
              "pivot": {
                "shop_id": 9680,
                "station_id": 10
              }
            },
            {
              "station_id": 89,
              "name": "Тульская",
              "latitude": "55.70884028",
              "longitude": "37.6226115",
              "city_id": 664,
              "pivot": {
                "shop_id": 9680,
                "station_id": 89
              }
            }
          ]
        },
        {
          "dist": 6411,
          "shop_id": 8623,
          "name": "ш. Энтузиастов, 26",
          "latitude": "55.75094",
          "longitude": "37.7193785",
          "is_plus": false,
          "is_beer": false,
          "city_id": 664,
          "no_alcohol": false,
          "phone": "79257261773",
          "alc_time_start_weekdays": "08:00",
          "alc_time_end_weekdays": "22:30",
          "alc_time_start_weekend": "08:00",
          "alc_time_end_weekend": "22:30",
          "alc_time_start_sunday": null,
          "alc_time_end_sunday": null,
          "zru": 4189,
          "discount_card": 2020536447320,
          "gmt": "3",
          "schedule": "08:00-22:05",
          "stations": [
            {
              "station_id": 70,
              "name": "Андроновка",
              "latitude": "55.74639028",
              "longitude": "37.7369045",
              "city_id": 664,
              "pivot": {
                "shop_id": 8623,
                "station_id": 70
              }
            },
            {
              "station_id": 217,
              "name": "Авиамоторная",
              "latitude": "55.75109437",
              "longitude": "37.71789792",
              "city_id": 664,
              "pivot": {
                "shop_id": 8623,
                "station_id": 217
              }
            }
          ]
        },
        {
          "dist": 6475,
          "shop_id": 10428,
          "name": "ул. Семеновская Б, 27, кор. 1",
          "latitude": "55.78259",
          "longitude": "37.709238",
          "is_plus": false,
          "is_beer": false,
          "city_id": 664,
          "no_alcohol": false,
          "phone": "79252972349",
          "alc_time_start_weekdays": "08:00",
          "alc_time_end_weekdays": "22:30",
          "alc_time_start_weekend": "08:00",
          "alc_time_end_weekend": "22:30",
          "alc_time_start_sunday": null,
          "alc_time_end_sunday": null,
          "zru": 4189,
          "discount_card": 2020536458715,
          "gmt": "3",
          "schedule": "09:00-22:05",
          "stations": [
            {
              "station_id": 4,
              "name": "Электрозаводская",
              "latitude": "55.78206628",
              "longitude": "37.7052835",
              "city_id": 664,
              "pivot": {
                "shop_id": 10428,
                "station_id": 4
              }
            },
            {
              "station_id": 5,
              "name": "Семёновская",
              "latitude": "55.78319225",
              "longitude": "37.71942886",
              "city_id": 664,
              "pivot": {
                "shop_id": 10428,
                "station_id": 5
              }
            },
            {
              "station_id": 75,
              "name": "Преображенская площадь",
              "latitude": "55.79616678",
              "longitude": "37.7150215",
              "city_id": 664,
              "pivot": {
                "shop_id": 10428,
                "station_id": 75
              }
            }
          ]
        },
        {
          "dist": 6518,
          "shop_id": 5684,
          "name": "Дмитровский проезд, 4",
          "latitude": "55.810106",
          "longitude": "37.5779565",
          "is_plus": false,
          "is_beer": false,
          "city_id": 664,
          "no_alcohol": false,
          "phone": "79269295227",
          "alc_time_start_weekdays": "08:00",
          "alc_time_end_weekdays": "22:30",
          "alc_time_start_weekend": "08:00",
          "alc_time_end_weekend": "22:30",
          "alc_time_start_sunday": null,
          "alc_time_end_sunday": null,
          "zru": 4156,
          "discount_card": 2020536429081,
          "gmt": "3",
          "schedule": "09:00-22:05",
          "stations": [
            {
              "station_id": 79,
              "name": "Дмитровская",
              "latitude": "55.80788028",
              "longitude": "37.5808315",
              "city_id": 664,
              "pivot": {
                "shop_id": 5684,
                "station_id": 79
              }
            },
            {
              "station_id": 80,
              "name": "Тимирязевская",
              "latitude": "55.81904428",
              "longitude": "37.5754865",
              "city_id": 664,
              "pivot": {
                "shop_id": 5684,
                "station_id": 80
              }
            }
          ]
        },